[
  {
    "code": 110000000000,
    "name": "北京市",
    "pinyin": "BeiJing",
    "lng": 116.407526,
    "lat": 39.90403,
    "children": [
      {
        "code": 110100000000,
        "name": "市辖区",
        "pinyin": "BeiJing",
        "lng": 116.407526,
        "lat": 39.90403,
        "children": [
          {
            "code": 110101000000,
            "name": "东城区",
            "pinyin": "DongCheng",
            "lng": 116.416357,
            "lat": 39.928353
          },
          {
            "code": 110102000000,
            "name": "西城区",
            "pinyin": "XiCheng",
            "lng": 116.365868,
            "lat": 39.912289
          },
          {
            "code": 110105000000,
            "name": "朝阳区",
            "pinyin": "ZhaoYang",
            "lng": 116.601144,
            "lat": 39.948574
          },
          {
            "code": 110106000000,
            "name": "丰台区",
            "pinyin": "FengTai",
            "lng": 116.287149,
            "lat": 39.858427
          },
          {
            "code": 110107000000,
            "name": "石景山区",
            "pinyin": "ShiJingShan",
            "lng": 116.222982,
            "lat": 39.906611
          },
          {
            "code": 110108000000,
            "name": "海淀区",
            "pinyin": "HaiDian",
            "lng": 116.329519,
            "lat": 39.972134
          },
          {
            "code": 110109000000,
            "name": "门头沟区",
            "pinyin": "MenTouGou",
            "lng": 116.102009,
            "lat": 39.940646
          },
          {
            "code": 110111000000,
            "name": "房山区",
            "pinyin": "FangShan",
            "lng": 116.143267,
            "lat": 39.749144
          },
          {
            "code": 110112000000,
            "name": "通州区",
            "pinyin": "TongZhou",
            "lng": 116.656435,
            "lat": 39.909946
          },
          {
            "code": 110113000000,
            "name": "顺义区",
            "pinyin": "ShunYi",
            "lng": 116.654561,
            "lat": 40.130347
          },
          {
            "code": 110114000000,
            "name": "昌平区",
            "pinyin": "ChangPing",
            "lng": 116.231204,
            "lat": 40.22066
          },
          {
            "code": 110115000000,
            "name": "大兴区",
            "pinyin": "DaXing",
            "lng": 116.341014,
            "lat": 39.784747
          },
          {
            "code": 110116000000,
            "name": "怀柔区",
            "pinyin": "HuaiRou",
            "lng": 116.642349,
            "lat": 40.315704
          },
          {
            "code": 110117000000,
            "name": "平谷区",
            "pinyin": "PingGu",
            "lng": 117.121383,
            "lat": 40.140701
          },
          {
            "code": 110118000000,
            "name": "密云区",
            "pinyin": "MiYun",
            "lng": 116.843177,
            "lat": 40.376834
          },
          {
            "code": 110119000000,
            "name": "延庆区",
            "pinyin": "YanQing",
            "lng": 115.974848,
            "lat": 40.456951
          }
        ]
      }
    ]
  },
  {
    "code": 120000000000,
    "name": "天津市",
    "pinyin": "TianJin",
    "lng": 117.200983,
    "lat": 39.084158,
    "children": [
      {
        "code": 120100000000,
        "name": "市辖区",
        "pinyin": "TianJin",
        "lng": 117.200983,
        "lat": 39.084158,
        "children": [
          {
            "code": 120101000000,
            "name": "和平区",
            "pinyin": "HePing",
            "lng": 117.208125,
            "lat": 39.118897
          },
          {
            "code": 120102000000,
            "name": "河东区",
            "pinyin": "HeDong",
            "lng": 117.251587,
            "lat": 39.128291
          },
          {
            "code": 120103000000,
            "name": "河西区",
            "pinyin": "HeXi",
            "lng": 117.223372,
            "lat": 39.109563
          },
          {
            "code": 120104000000,
            "name": "南开区",
            "pinyin": "NanKai",
            "lng": 117.150738,
            "lat": 39.138203
          },
          {
            "code": 120105000000,
            "name": "河北区",
            "pinyin": "HeBei",
            "lng": 117.196648,
            "lat": 39.147869
          },
          {
            "code": 120106000000,
            "name": "红桥区",
            "pinyin": "HongQiao",
            "lng": 117.151533,
            "lat": 39.167345
          },
          {
            "code": 120110000000,
            "name": "东丽区",
            "pinyin": "DongLi",
            "lng": 117.314324,
            "lat": 39.086569
          },
          {
            "code": 120111000000,
            "name": "西青区",
            "pinyin": "XiQing",
            "lng": 117.013949,
            "lat": 39.141591
          },
          {
            "code": 120112000000,
            "name": "津南区",
            "pinyin": "JinNan",
            "lng": 117.391976,
            "lat": 38.984526
          },
          {
            "code": 120113000000,
            "name": "北辰区",
            "pinyin": "BeiChen",
            "lng": 117.139343,
            "lat": 39.217817
          },
          {
            "code": 120114000000,
            "name": "武清区",
            "pinyin": "WuQing",
            "lng": 117.044388,
            "lat": 39.384119
          },
          {
            "code": 120115000000,
            "name": "宝坻区",
            "pinyin": "BaoDi",
            "lng": 117.309863,
            "lat": 39.717379
          },
          {
            "code": 120116000000,
            "name": "滨海新区",
            "pinyin": "BinHai",
            "lng": 117.78067,
            "lat": 39.246083
          },
          {
            "code": 120117000000,
            "name": "宁河区",
            "pinyin": "NingHe",
            "lng": 117.826625,
            "lat": 39.329858
          },
          {
            "code": 120118000000,
            "name": "静海区",
            "pinyin": "JingHai",
            "lng": 116.97413,
            "lat": 38.947512
          },
          {
            "code": 120119000000,
            "name": "蓟州区",
            "pinyin": "JiZhou",
            "lng": 117.408307,
            "lat": 40.04606
          }
        ]
      }
    ]
  },
  {
    "code": 130000000000,
    "name": "河北省",
    "pinyin": "HeBei",
    "lng": 114.468664,
    "lat": 38.037057,
    "children": [
      {
        "code": 130100000000,
        "name": "石家庄市",
        "pinyin": "ShiJiaZhuang",
        "lng": 114.514859,
        "lat": 38.042306,
        "children": [
          {
            "code": 130102000000,
            "name": "长安区",
            "pinyin": "ChangAn",
            "lng": 114.53906,
            "lat": 38.036654
          },
          {
            "code": 130104000000,
            "name": "桥西区",
            "pinyin": "QiaoXi",
            "lng": 114.461154,
            "lat": 38.004043
          },
          {
            "code": 130105000000,
            "name": "新华区",
            "pinyin": "XinHua",
            "lng": 114.463347,
            "lat": 38.05106
          },
          {
            "code": 130107000000,
            "name": "井陉矿区",
            "pinyin": "JingXingKuang",
            "lng": 114.514859,
            "lat": 38.042306
          },
          {
            "code": 130108000000,
            "name": "裕华区",
            "pinyin": "YuHua",
            "lng": 114.531362,
            "lat": 38.006453
          },
          {
            "code": 130109000000,
            "name": "藁城区",
            "pinyin": "GaoCheng",
            "lng": 114.847075,
            "lat": 38.021567
          },
          {
            "code": 130110000000,
            "name": "鹿泉区",
            "pinyin": "LuQuan",
            "lng": 114.313724,
            "lat": 38.085958
          },
          {
            "code": 130111000000,
            "name": "栾城区",
            "pinyin": "LuanCheng",
            "lng": 114.648318,
            "lat": 37.9002
          },
          {
            "code": 130121000000,
            "name": "井陉县",
            "pinyin": "JingXing",
            "lng": 114.14524,
            "lat": 38.032148
          },
          {
            "code": 130123000000,
            "name": "正定县",
            "pinyin": "ZhengDing",
            "lng": 114.570941,
            "lat": 38.146445
          },
          {
            "code": 130125000000,
            "name": "行唐县",
            "pinyin": "XingTang",
            "lng": 114.552737,
            "lat": 38.438411
          },
          {
            "code": 130126000000,
            "name": "灵寿县",
            "pinyin": "LingShou",
            "lng": 114.37614,
            "lat": 38.30611
          },
          {
            "code": 130127000000,
            "name": "高邑县",
            "pinyin": "GaoYi",
            "lng": 114.611433,
            "lat": 37.615159
          },
          {
            "code": 130128000000,
            "name": "深泽县",
            "pinyin": "ShenZe",
            "lng": 115.20091,
            "lat": 38.184072
          },
          {
            "code": 130129000000,
            "name": "赞皇县",
            "pinyin": "ZanHuang",
            "lng": 114.386155,
            "lat": 37.665576
          },
          {
            "code": 130130000000,
            "name": "无极县",
            "pinyin": "WuJi",
            "lng": 114.976337,
            "lat": 38.179141
          },
          {
            "code": 130131000000,
            "name": "平山县",
            "pinyin": "PingShan",
            "lng": 114.199134,
            "lat": 38.247144
          },
          {
            "code": 130132000000,
            "name": "元氏县",
            "pinyin": "YuanShi",
            "lng": 114.52558,
            "lat": 37.766651
          },
          {
            "code": 130133000000,
            "name": "赵县",
            "pinyin": "ZhaoXian",
            "lng": 114.776187,
            "lat": 37.756498
          },
          {
            "code": 130171000000,
            "name": "石家庄高新技术产业开发区",
            "pinyin": "ShiJiaZhuangGao",
            "lng": 114.469069,
            "lat": 38.008101
          },
          {
            "code": 130172000000,
            "name": "石家庄循环化工园区",
            "pinyin": "ShiJiaZhuangXunHuanHuaGongYuan",
            "lng": 114.69345,
            "lat": 37.99674
          },
          {
            "code": 130181000000,
            "name": "辛集市",
            "pinyin": "XinJi",
            "lng": 115.218057,
            "lat": 37.943315
          },
          {
            "code": 130183000000,
            "name": "晋州市",
            "pinyin": "JinZhou",
            "lng": 115.044185,
            "lat": 38.033629
          },
          {
            "code": 130184000000,
            "name": "新乐市",
            "pinyin": "XinLe",
            "lng": 114.684014,
            "lat": 38.343296
          }
        ]
      },
      {
        "code": 130200000000,
        "name": "唐山市",
        "pinyin": "TangShan",
        "lng": 118.180193,
        "lat": 39.630867,
        "children": [
          {
            "code": 130202000000,
            "name": "路南区",
            "pinyin": "LuNan",
            "lng": 118.154354,
            "lat": 39.625059
          },
          {
            "code": 130203000000,
            "name": "路北区",
            "pinyin": "LuBei",
            "lng": 118.200692,
            "lat": 39.624437
          },
          {
            "code": 130204000000,
            "name": "古冶区",
            "pinyin": "GuYe",
            "lng": 118.447635,
            "lat": 39.733578
          },
          {
            "code": 130205000000,
            "name": "开平区",
            "pinyin": "KaiPing",
            "lng": 118.261842,
            "lat": 39.671001
          },
          {
            "code": 130207000000,
            "name": "丰南区",
            "pinyin": "FengNan",
            "lng": 118.085169,
            "lat": 39.576031
          },
          {
            "code": 130208000000,
            "name": "丰润区",
            "pinyin": "FengRun",
            "lng": 118.162216,
            "lat": 39.832582
          },
          {
            "code": 130209000000,
            "name": "曹妃甸区",
            "pinyin": "CaoFeiDian",
            "lng": 118.460379,
            "lat": 39.27307
          },
          {
            "code": 130224000000,
            "name": "滦南县",
            "pinyin": "LuanNan",
            "lng": 118.682379,
            "lat": 39.518997
          },
          {
            "code": 130225000000,
            "name": "乐亭县",
            "pinyin": "LeTing",
            "lng": 118.912571,
            "lat": 39.425608
          },
          {
            "code": 130227000000,
            "name": "迁西县",
            "pinyin": "QianXi",
            "lng": 118.314715,
            "lat": 40.1415
          },
          {
            "code": 130229000000,
            "name": "玉田县",
            "pinyin": "YuTian",
            "lng": 117.738658,
            "lat": 39.900401
          },
          {
            "code": 130271000000,
            "name": "河北唐山芦台经济开发区",
            "pinyin": "HeBeiTangShanLuTaiJingKaiQu",
            "lng": 118.144879,
            "lat": 39.806215
          },
          {
            "code": 130272000000,
            "name": "唐山市汉沽管理区",
            "pinyin": "TangShanHanGuGuanLi",
            "lng": 117.88353,
            "lat": 39.362495
          },
          {
            "code": 130273000000,
            "name": "唐山高新技术产业开发区",
            "pinyin": "TangShanGao",
            "lng": 118.180193,
            "lat": 39.630867
          },
          {
            "code": 130274000000,
            "name": "河北唐山海港经济开发区",
            "pinyin": "HeBeiTangShanHaiGangJingKaiQu",
            "lng": 119.003392,
            "lat": 39.231911
          },
          {
            "code": 130281000000,
            "name": "遵化市",
            "pinyin": "ZunHua",
            "lng": 117.965892,
            "lat": 40.189202
          },
          {
            "code": 130283000000,
            "name": "迁安市",
            "pinyin": "QianAn",
            "lng": 118.701144,
            "lat": 39.999175
          },
          {
            "code": 130284000000,
            "name": "滦州市",
            "pinyin": "LuanZhou",
            "lng": 118.689775,
            "lat": 39.74038
          }
        ]
      },
      {
        "code": 130300000000,
        "name": "秦皇岛市",
        "pinyin": "QinHuangDao",
        "lng": 119.600492,
        "lat": 39.935385,
        "children": [
          {
            "code": 130302000000,
            "name": "海港区",
            "pinyin": "HaiGang",
            "lng": 119.564962,
            "lat": 39.94756
          },
          {
            "code": 130303000000,
            "name": "山海关区",
            "pinyin": "ShanHaiGuan",
            "lng": 119.775799,
            "lat": 39.978849
          },
          {
            "code": 130304000000,
            "name": "北戴河区",
            "pinyin": "BeiDaiHe",
            "lng": 119.488914,
            "lat": 39.834751
          },
          {
            "code": 130306000000,
            "name": "抚宁区",
            "pinyin": "FuNing",
            "lng": 119.235739,
            "lat": 39.889241
          },
          {
            "code": 130321000000,
            "name": "青龙满族自治县",
            "pinyin": "QingLong",
            "lng": 118.949684,
            "lat": 40.407578
          },
          {
            "code": 130322000000,
            "name": "昌黎县",
            "pinyin": "ChangLi",
            "lng": 119.162694,
            "lat": 39.712813
          },
          {
            "code": 130324000000,
            "name": "卢龙县",
            "pinyin": "LuLong",
            "lng": 118.892986,
            "lat": 39.891947
          },
          {
            "code": 130371000000,
            "name": "秦皇岛市经济技术开发区",
            "pinyin": "QinHuangDaoJingKaiQu",
            "lng": 119.463801,
            "lat": 39.931654
          },
          {
            "code": 130372000000,
            "name": "北戴河新区",
            "pinyin": "BeiDaiHe",
            "lng": 119.473228,
            "lat": 39.826088
          }
        ]
      },
      {
        "code": 130400000000,
        "name": "邯郸市",
        "pinyin": "HanDan",
        "lng": 114.538961,
        "lat": 36.625657,
        "children": [
          {
            "code": 130402000000,
            "name": "邯山区",
            "pinyin": "HanShan",
            "lng": 114.490431,
            "lat": 36.580358
          },
          {
            "code": 130403000000,
            "name": "丛台区",
            "pinyin": "CongTai",
            "lng": 114.492897,
            "lat": 36.63641
          },
          {
            "code": 130404000000,
            "name": "复兴区",
            "pinyin": "FuXing",
            "lng": 114.462058,
            "lat": 36.639022
          },
          {
            "code": 130406000000,
            "name": "峰峰矿区",
            "pinyin": "FengFengKuang",
            "lng": 114.538961,
            "lat": 36.625657
          },
          {
            "code": 130407000000,
            "name": "肥乡区",
            "pinyin": "FeiXiang",
            "lng": 114.800166,
            "lat": 36.548132
          },
          {
            "code": 130408000000,
            "name": "永年区",
            "pinyin": "YongNian",
            "lng": 114.538961,
            "lat": 36.625657
          },
          {
            "code": 130423000000,
            "name": "临漳县",
            "pinyin": "LinZhang",
            "lng": 114.619544,
            "lat": 36.3353
          },
          {
            "code": 130424000000,
            "name": "成安县",
            "pinyin": "ChengAn",
            "lng": 114.670032,
            "lat": 36.444407
          },
          {
            "code": 130425000000,
            "name": "大名县",
            "pinyin": "DaMing",
            "lng": 115.147814,
            "lat": 36.285616
          },
          {
            "code": 130426000000,
            "name": "涉县",
            "pinyin": "SheXian",
            "lng": 113.691401,
            "lat": 36.584995
          },
          {
            "code": 130427000000,
            "name": "磁县",
            "pinyin": "CiXian",
            "lng": 114.373947,
            "lat": 36.374012
          },
          {
            "code": 130430000000,
            "name": "邱县",
            "pinyin": "QiuXian",
            "lng": 115.186792,
            "lat": 36.811133
          },
          {
            "code": 130431000000,
            "name": "鸡泽县",
            "pinyin": "JiZe",
            "lng": 114.878299,
            "lat": 36.92035
          },
          {
            "code": 130432000000,
            "name": "广平县",
            "pinyin": "GuangPing",
            "lng": 114.948607,
            "lat": 36.483484
          },
          {
            "code": 130433000000,
            "name": "馆陶县",
            "pinyin": "GuanTao",
            "lng": 115.282468,
            "lat": 36.547557
          },
          {
            "code": 130434000000,
            "name": "魏县",
            "pinyin": "WeiXian",
            "lng": 114.938976,
            "lat": 36.359861
          },
          {
            "code": 130435000000,
            "name": "曲周县",
            "pinyin": "QuZhou",
            "lng": 114.945131,
            "lat": 36.78017
          },
          {
            "code": 130471000000,
            "name": "邯郸经济技术开发区",
            "pinyin": "HanDanJingKaiQu",
            "lng": 114.490431,
            "lat": 36.580358
          },
          {
            "code": 130473000000,
            "name": "邯郸冀南新区",
            "pinyin": "HanDanJiNan",
            "lng": 114.490431,
            "lat": 36.580358
          },
          {
            "code": 130481000000,
            "name": "武安市",
            "pinyin": "WuAn",
            "lng": 114.203697,
            "lat": 36.696506
          }
        ]
      },
      {
        "code": 130500000000,
        "name": "邢台市",
        "pinyin": "XingTai",
        "lng": 114.504844,
        "lat": 37.070589,
        "children": [
          {
            "code": 130502000000,
            "name": "襄都区",
            "pinyin": "XiangDou",
            "lng": 114.504844,
            "lat": 37.070589
          },
          {
            "code": 130503000000,
            "name": "信都区",
            "pinyin": "XinDou",
            "lng": 114.504844,
            "lat": 37.070589
          },
          {
            "code": 130505000000,
            "name": "任泽区",
            "pinyin": "RenZe",
            "lng": 114.504844,
            "lat": 37.070589
          },
          {
            "code": 130506000000,
            "name": "南和区",
            "pinyin": "NanHe",
            "lng": 114.683762,
            "lat": 37.005041
          },
          {
            "code": 130522000000,
            "name": "临城县",
            "pinyin": "LinCheng",
            "lng": 114.498762,
            "lat": 37.444499
          },
          {
            "code": 130523000000,
            "name": "内丘县",
            "pinyin": "NeiQiu",
            "lng": 114.512128,
            "lat": 37.286669
          },
          {
            "code": 130524000000,
            "name": "柏乡县",
            "pinyin": "BaiXiang",
            "lng": 114.693426,
            "lat": 37.482423
          },
          {
            "code": 130525000000,
            "name": "隆尧县",
            "pinyin": "LongYao",
            "lng": 114.770419,
            "lat": 37.350173
          },
          {
            "code": 130528000000,
            "name": "宁晋县",
            "pinyin": "NingJin",
            "lng": 114.919301,
            "lat": 37.619886
          },
          {
            "code": 130529000000,
            "name": "巨鹿县",
            "pinyin": "JuLu",
            "lng": 115.037478,
            "lat": 37.221112
          },
          {
            "code": 130530000000,
            "name": "新河县",
            "pinyin": "XinHe",
            "lng": 115.242014,
            "lat": 37.528712
          },
          {
            "code": 130531000000,
            "name": "广宗县",
            "pinyin": "GuangZong",
            "lng": 115.142607,
            "lat": 37.07466
          },
          {
            "code": 130532000000,
            "name": "平乡县",
            "pinyin": "PingXiang",
            "lng": 115.030076,
            "lat": 37.063148
          },
          {
            "code": 130533000000,
            "name": "威县",
            "pinyin": "WeiXian",
            "lng": 115.266783,
            "lat": 36.975321
          },
          {
            "code": 130534000000,
            "name": "清河县",
            "pinyin": "QingHe",
            "lng": 115.667576,
            "lat": 37.040087
          },
          {
            "code": 130535000000,
            "name": "临西县",
            "pinyin": "LinXi",
            "lng": 115.501048,
            "lat": 36.870813
          },
          {
            "code": 130571000000,
            "name": "河北邢台经济开发区",
            "pinyin": "HeBeiXingTaiJingKaiQu",
            "lng": 114.565733,
            "lat": 37.06169
          },
          {
            "code": 130581000000,
            "name": "南宫市",
            "pinyin": "NanGong",
            "lng": 115.408748,
            "lat": 37.359264
          },
          {
            "code": 130582000000,
            "name": "沙河市",
            "pinyin": "ShaHe",
            "lng": 114.503335,
            "lat": 36.854922
          }
        ]
      },
      {
        "code": 130600000000,
        "name": "保定市",
        "pinyin": "BaoDing",
        "lng": 115.464806,
        "lat": 38.873891,
        "children": [
          {
            "code": 130602000000,
            "name": "竞秀区",
            "pinyin": "JingXiu",
            "lng": 115.458669,
            "lat": 38.877561
          },
          {
            "code": 130606000000,
            "name": "莲池区",
            "pinyin": "LianChi",
            "lng": 115.497342,
            "lat": 38.883209
          },
          {
            "code": 130607000000,
            "name": "满城区",
            "pinyin": "ManCheng",
            "lng": 115.322351,
            "lat": 38.948955
          },
          {
            "code": 130608000000,
            "name": "清苑区",
            "pinyin": "QingYuan",
            "lng": 115.489968,
            "lat": 38.765041
          },
          {
            "code": 130609000000,
            "name": "徐水区",
            "pinyin": "XuShui",
            "lng": 115.62441,
            "lat": 39.026233
          },
          {
            "code": 130623000000,
            "name": "涞水县",
            "pinyin": "LaiShui",
            "lng": 115.713905,
            "lat": 39.394317
          },
          {
            "code": 130624000000,
            "name": "阜平县",
            "pinyin": "FuPing",
            "lng": 114.195104,
            "lat": 38.849152
          },
          {
            "code": 130626000000,
            "name": "定兴县",
            "pinyin": "DingXing",
            "lng": 115.808175,
            "lat": 39.263018
          },
          {
            "code": 130627000000,
            "name": "唐县",
            "pinyin": "TangXian",
            "lng": 114.982972,
            "lat": 38.748204
          },
          {
            "code": 130628000000,
            "name": "高阳县",
            "pinyin": "GaoYang",
            "lng": 115.778965,
            "lat": 38.700088
          },
          {
            "code": 130629000000,
            "name": "容城县",
            "pinyin": "RongCheng",
            "lng": 115.861657,
            "lat": 39.042784
          },
          {
            "code": 130630000000,
            "name": "涞源县",
            "pinyin": "LaiYuan",
            "lng": 114.694284,
            "lat": 39.360247
          },
          {
            "code": 130631000000,
            "name": "望都县",
            "pinyin": "WangDu",
            "lng": 115.154511,
            "lat": 38.695736
          },
          {
            "code": 130632000000,
            "name": "安新县",
            "pinyin": "AnXin",
            "lng": 115.935553,
            "lat": 38.935364
          },
          {
            "code": 130633000000,
            "name": "易县",
            "pinyin": "YiXian",
            "lng": 115.497509,
            "lat": 39.349398
          },
          {
            "code": 130634000000,
            "name": "曲阳县",
            "pinyin": "QuYang",
            "lng": 114.74497,
            "lat": 38.622242
          },
          {
            "code": 130635000000,
            "name": "蠡县",
            "pinyin": "LiXian",
            "lng": 115.583855,
            "lat": 38.488056
          },
          {
            "code": 130636000000,
            "name": "顺平县",
            "pinyin": "ShunPing",
            "lng": 115.13547,
            "lat": 38.837487
          },
          {
            "code": 130637000000,
            "name": "博野县",
            "pinyin": "BoYe",
            "lng": 115.46438,
            "lat": 38.457364
          },
          {
            "code": 130638000000,
            "name": "雄县",
            "pinyin": "XiongXian",
            "lng": 116.10865,
            "lat": 38.99455
          },
          {
            "code": 130671000000,
            "name": "保定高新技术产业开发区",
            "pinyin": "BaoDingGao",
            "lng": 115.464806,
            "lat": 38.873891
          },
          {
            "code": 130672000000,
            "name": "保定白沟新城",
            "pinyin": "BaoDingBaiGouXinCheng",
            "lng": 116.045066,
            "lat": 39.128227
          },
          {
            "code": 130681000000,
            "name": "涿州市",
            "pinyin": "ZhuoZhou",
            "lng": 115.974422,
            "lat": 39.485283
          },
          {
            "code": 130682000000,
            "name": "定州市",
            "pinyin": "DingZhou",
            "lng": 114.990159,
            "lat": 38.516174
          },
          {
            "code": 130683000000,
            "name": "安国市",
            "pinyin": "AnGuo",
            "lng": 115.326647,
            "lat": 38.41844
          },
          {
            "code": 130684000000,
            "name": "高碑店市",
            "pinyin": "GaoBeiDian",
            "lng": 115.873758,
            "lat": 39.326521
          }
        ]
      },
      {
        "code": 130700000000,
        "name": "张家口市",
        "pinyin": "ZhangJiaKou",
        "lng": 114.887543,
        "lat": 40.824418,
        "children": [
          {
            "code": 130702000000,
            "name": "桥东区",
            "pinyin": "QiaoDong",
            "lng": 114.894341,
            "lat": 40.788457
          },
          {
            "code": 130703000000,
            "name": "桥西区",
            "pinyin": "QiaoXi",
            "lng": 114.869407,
            "lat": 40.819564
          },
          {
            "code": 130705000000,
            "name": "宣化区",
            "pinyin": "XuanHua",
            "lng": 115.09951,
            "lat": 40.608726
          },
          {
            "code": 130706000000,
            "name": "下花园区",
            "pinyin": "XiaHuaYuan",
            "lng": 115.287352,
            "lat": 40.502652
          },
          {
            "code": 130708000000,
            "name": "万全区",
            "pinyin": "WanQuan",
            "lng": 114.74056,
            "lat": 40.766898
          },
          {
            "code": 130709000000,
            "name": "崇礼区",
            "pinyin": "ChongLi",
            "lng": 115.282669,
            "lat": 40.974676
          },
          {
            "code": 130722000000,
            "name": "张北县",
            "pinyin": "ZhangBei",
            "lng": 114.720086,
            "lat": 41.158557
          },
          {
            "code": 130723000000,
            "name": "康保县",
            "pinyin": "KangBao",
            "lng": 114.600404,
            "lat": 41.852368
          },
          {
            "code": 130724000000,
            "name": "沽源县",
            "pinyin": "GuYuan",
            "lng": 115.688692,
            "lat": 41.669668
          },
          {
            "code": 130725000000,
            "name": "尚义县",
            "pinyin": "ShangYi",
            "lng": 113.969619,
            "lat": 41.076227
          },
          {
            "code": 130726000000,
            "name": "蔚县",
            "pinyin": "YuXian",
            "lng": 114.588903,
            "lat": 39.840843
          },
          {
            "code": 130727000000,
            "name": "阳原县",
            "pinyin": "YangYuan",
            "lng": 114.150388,
            "lat": 40.103742
          },
          {
            "code": 130728000000,
            "name": "怀安县",
            "pinyin": "HuaiAn",
            "lng": 114.385791,
            "lat": 40.674193
          },
          {
            "code": 130730000000,
            "name": "怀来县",
            "pinyin": "HuaiLai",
            "lng": 115.517862,
            "lat": 40.415343
          },
          {
            "code": 130731000000,
            "name": "涿鹿县",
            "pinyin": "ZhuoLu",
            "lng": 115.205345,
            "lat": 40.379563
          },
          {
            "code": 130732000000,
            "name": "赤城县",
            "pinyin": "ChiCheng",
            "lng": 115.831499,
            "lat": 40.912921
          },
          {
            "code": 130771000000,
            "name": "张家口经济开发区",
            "pinyin": "ZhangJiaKouJingKaiQu",
            "lng": 114.897535,
            "lat": 40.825959
          },
          {
            "code": 130772000000,
            "name": "张家口市察北管理区",
            "pinyin": "ZhangJiaKouChaBeiGuanLi",
            "lng": 114.943873,
            "lat": 41.405811
          },
          {
            "code": 130773000000,
            "name": "张家口市塞北管理区",
            "pinyin": "ZhangJiaKouSaiBeiGuanLi",
            "lng": 115.816574,
            "lat": 41.871622
          }
        ]
      },
      {
        "code": 130800000000,
        "name": "承德市",
        "pinyin": "ChengDe",
        "lng": 117.96241,
        "lat": 40.954071,
        "children": [
          {
            "code": 130802000000,
            "name": "双桥区",
            "pinyin": "ShuangQiao",
            "lng": 117.943348,
            "lat": 40.97465
          },
          {
            "code": 130803000000,
            "name": "双滦区",
            "pinyin": "ShuangLuan",
            "lng": 117.799912,
            "lat": 40.959196
          },
          {
            "code": 130804000000,
            "name": "鹰手营子矿区",
            "pinyin": "YingShouYingZiKuang",
            "lng": 117.661156,
            "lat": 40.546956
          },
          {
            "code": 130821000000,
            "name": "承德县",
            "pinyin": "ChengDe",
            "lng": 118.173825,
            "lat": 40.768238
          },
          {
            "code": 130822000000,
            "name": "兴隆县",
            "pinyin": "XingLong",
            "lng": 117.500558,
            "lat": 40.417358
          },
          {
            "code": 130824000000,
            "name": "滦平县",
            "pinyin": "LuanPing",
            "lng": 117.332801,
            "lat": 40.941482
          },
          {
            "code": 130825000000,
            "name": "隆化县",
            "pinyin": "LongHua",
            "lng": 117.738938,
            "lat": 41.313791
          },
          {
            "code": 130826000000,
            "name": "丰宁满族自治县",
            "pinyin": "FengNing",
            "lng": 116.645988,
            "lat": 41.208949
          },
          {
            "code": 130827000000,
            "name": "宽城满族自治县",
            "pinyin": "KuanCheng",
            "lng": 118.485313,
            "lat": 40.611391
          },
          {
            "code": 130828000000,
            "name": "围场满族蒙古族自治县",
            "pinyin": "WeiChang",
            "lng": 117.760159,
            "lat": 41.938529
          },
          {
            "code": 130871000000,
            "name": "承德高新技术产业开发区",
            "pinyin": "ChengDeGao",
            "lng": 118.173825,
            "lat": 40.768238
          },
          {
            "code": 130881000000,
            "name": "平泉市",
            "pinyin": "PingQuan",
            "lng": 117.96241,
            "lat": 40.954071
          }
        ]
      },
      {
        "code": 130900000000,
        "name": "沧州市",
        "pinyin": "CangZhou",
        "lng": 116.838834,
        "lat": 38.304477,
        "children": [
          {
            "code": 130902000000,
            "name": "新华区",
            "pinyin": "XinHua",
            "lng": 116.866284,
            "lat": 38.314416
          },
          {
            "code": 130903000000,
            "name": "运河区",
            "pinyin": "YunHe",
            "lng": 116.832276,
            "lat": 38.310143
          },
          {
            "code": 130921000000,
            "name": "沧县",
            "pinyin": "CangXian",
            "lng": 117.007478,
            "lat": 38.219856
          },
          {
            "code": 130922000000,
            "name": "青县",
            "pinyin": "QingXian",
            "lng": 116.804306,
            "lat": 38.583021
          },
          {
            "code": 130923000000,
            "name": "东光县",
            "pinyin": "DongGuang",
            "lng": 116.537067,
            "lat": 37.888248
          },
          {
            "code": 130924000000,
            "name": "海兴县",
            "pinyin": "HaiXing",
            "lng": 117.496606,
            "lat": 38.141582
          },
          {
            "code": 130925000000,
            "name": "盐山县",
            "pinyin": "YanShan",
            "lng": 117.230603,
            "lat": 38.058088
          },
          {
            "code": 130926000000,
            "name": "肃宁县",
            "pinyin": "SuNing",
            "lng": 115.829758,
            "lat": 38.422802
          },
          {
            "code": 130927000000,
            "name": "南皮县",
            "pinyin": "NanPi",
            "lng": 116.708104,
            "lat": 38.038584
          },
          {
            "code": 130928000000,
            "name": "吴桥县",
            "pinyin": "WuQiao",
            "lng": 116.391508,
            "lat": 37.627661
          },
          {
            "code": 130929000000,
            "name": "献县",
            "pinyin": "XianXian",
            "lng": 116.122802,
            "lat": 38.190144
          },
          {
            "code": 130930000000,
            "name": "孟村回族自治县",
            "pinyin": "MengCun",
            "lng": 117.104298,
            "lat": 38.053409
          },
          {
            "code": 130971000000,
            "name": "河北沧州经济开发区",
            "pinyin": "HeBeiCangZhouJingKaiQu",
            "lng": 116.940938,
            "lat": 38.283015
          },
          {
            "code": 130972000000,
            "name": "沧州高新技术产业开发区",
            "pinyin": "CangZhouGao",
            "lng": 116.810775,
            "lat": 38.338224
          },
          {
            "code": 130973000000,
            "name": "沧州渤海新区",
            "pinyin": "CangZhouBoHai",
            "lng": 117.778136,
            "lat": 38.270257
          },
          {
            "code": 130981000000,
            "name": "泊头市",
            "pinyin": "PoTou",
            "lng": 116.578368,
            "lat": 38.083437
          },
          {
            "code": 130982000000,
            "name": "任丘市",
            "pinyin": "RenQiu",
            "lng": 116.082918,
            "lat": 38.683592
          },
          {
            "code": 130983000000,
            "name": "黄骅市",
            "pinyin": "HuangHua",
            "lng": 117.330048,
            "lat": 38.371383
          },
          {
            "code": 130984000000,
            "name": "河间市",
            "pinyin": "HeJian",
            "lng": 116.099518,
            "lat": 38.446624
          }
        ]
      },
      {
        "code": 131000000000,
        "name": "廊坊市",
        "pinyin": "LangFang",
        "lng": 116.683752,
        "lat": 39.538047,
        "children": [
          {
            "code": 131002000000,
            "name": "安次区",
            "pinyin": "AnCi",
            "lng": 116.694544,
            "lat": 39.502569
          },
          {
            "code": 131003000000,
            "name": "广阳区",
            "pinyin": "GuangYang",
            "lng": 116.71069,
            "lat": 39.522786
          },
          {
            "code": 131022000000,
            "name": "固安县",
            "pinyin": "GuAn",
            "lng": 116.298657,
            "lat": 39.438214
          },
          {
            "code": 131023000000,
            "name": "永清县",
            "pinyin": "YongQing",
            "lng": 116.499028,
            "lat": 39.321794
          },
          {
            "code": 131024000000,
            "name": "香河县",
            "pinyin": "XiangHe",
            "lng": 117.006093,
            "lat": 39.761424
          },
          {
            "code": 131025000000,
            "name": "大城县",
            "pinyin": "DaiCheng",
            "lng": 116.653794,
            "lat": 38.705449
          },
          {
            "code": 131026000000,
            "name": "文安县",
            "pinyin": "WenAn",
            "lng": 116.457858,
            "lat": 38.873281
          },
          {
            "code": 131028000000,
            "name": "大厂回族自治县",
            "pinyin": "DaChang",
            "lng": 116.989574,
            "lat": 39.886547
          },
          {
            "code": 131071000000,
            "name": "廊坊经济技术开发区",
            "pinyin": "LangFangJingKaiQu",
            "lng": 116.758484,
            "lat": 39.566781
          },
          {
            "code": 131081000000,
            "name": "霸州市",
            "pinyin": "BaZhou",
            "lng": 116.391386,
            "lat": 39.125898
          },
          {
            "code": 131082000000,
            "name": "三河市",
            "pinyin": "SanHe",
            "lng": 117.078295,
            "lat": 39.982718
          }
        ]
      },
      {
        "code": 131100000000,
        "name": "衡水市",
        "pinyin": "HengShui",
        "lng": 115.670177,
        "lat": 37.73892,
        "children": [
          {
            "code": 131102000000,
            "name": "桃城区",
            "pinyin": "TaoCheng",
            "lng": 115.675422,
            "lat": 37.735369
          },
          {
            "code": 131103000000,
            "name": "冀州区",
            "pinyin": "JiZhou",
            "lng": 115.579334,
            "lat": 37.550821
          },
          {
            "code": 131121000000,
            "name": "枣强县",
            "pinyin": "ZaoQiang",
            "lng": 115.72426,
            "lat": 37.513417
          },
          {
            "code": 131122000000,
            "name": "武邑县",
            "pinyin": "WuYi",
            "lng": 115.887655,
            "lat": 37.801658
          },
          {
            "code": 131123000000,
            "name": "武强县",
            "pinyin": "WuQiang",
            "lng": 115.982461,
            "lat": 38.041368
          },
          {
            "code": 131124000000,
            "name": "饶阳县",
            "pinyin": "RaoYang",
            "lng": 115.725833,
            "lat": 38.235892
          },
          {
            "code": 131125000000,
            "name": "安平县",
            "pinyin": "AnPing",
            "lng": 115.519216,
            "lat": 38.23451
          },
          {
            "code": 131126000000,
            "name": "故城县",
            "pinyin": "GuCheng",
            "lng": 115.965874,
            "lat": 37.34741
          },
          {
            "code": 131127000000,
            "name": "景县",
            "pinyin": "JingXian",
            "lng": 116.270648,
            "lat": 37.69229
          },
          {
            "code": 131128000000,
            "name": "阜城县",
            "pinyin": "FuCheng",
            "lng": 116.144418,
            "lat": 37.868872
          },
          {
            "code": 131171000000,
            "name": "河北衡水高新技术产业开发区",
            "pinyin": "HeBeiHengShuiGao",
            "lng": 115.670177,
            "lat": 37.73892
          },
          {
            "code": 131172000000,
            "name": "衡水滨湖新区",
            "pinyin": "HengShuiBinHu",
            "lng": 115.652348,
            "lat": 37.64275
          },
          {
            "code": 131182000000,
            "name": "深州市",
            "pinyin": "ShenZhou",
            "lng": 115.559574,
            "lat": 38.001536
          }
        ]
      }
    ]
  },
  {
    "code": 140000000000,
    "name": "山西省",
    "pinyin": "ShanXi",
    "lng": 112.562398,
    "lat": 37.873531,
    "children": [
      {
        "code": 140100000000,
        "name": "太原市",
        "pinyin": "TaiYuan",
        "lng": 112.548879,
        "lat": 37.87059,
        "children": [
          {
            "code": 140105000000,
            "name": "小店区",
            "pinyin": "XiaoDian",
            "lng": 112.564306,
            "lat": 37.742941
          },
          {
            "code": 140106000000,
            "name": "迎泽区",
            "pinyin": "YingZe",
            "lng": 112.5634,
            "lat": 37.863451
          },
          {
            "code": 140107000000,
            "name": "杏花岭区",
            "pinyin": "XingHuaLing",
            "lng": 112.570605,
            "lat": 37.893955
          },
          {
            "code": 140108000000,
            "name": "尖草坪区",
            "pinyin": "JianCaoPing",
            "lng": 112.486691,
            "lat": 37.940387
          },
          {
            "code": 140109000000,
            "name": "万柏林区",
            "pinyin": "WanBoLin",
            "lng": 112.515748,
            "lat": 37.859447
          },
          {
            "code": 140110000000,
            "name": "晋源区",
            "pinyin": "JinYuan",
            "lng": 112.47794,
            "lat": 37.715193
          },
          {
            "code": 140121000000,
            "name": "清徐县",
            "pinyin": "QingXu",
            "lng": 112.358667,
            "lat": 37.607443
          },
          {
            "code": 140122000000,
            "name": "阳曲县",
            "pinyin": "YangQu",
            "lng": 112.672953,
            "lat": 38.058489
          },
          {
            "code": 140123000000,
            "name": "娄烦县",
            "pinyin": "LouFan",
            "lng": 111.797083,
            "lat": 38.067932
          },
          {
            "code": 140171000000,
            "name": "山西转型综合改革示范区",
            "pinyin": "ShanXiShiFan",
            "lng": 112.548879,
            "lat": 37.87059
          },
          {
            "code": 140181000000,
            "name": "古交市",
            "pinyin": "GuJiao",
            "lng": 112.175875,
            "lat": 37.907109
          }
        ]
      },
      {
        "code": 140200000000,
        "name": "大同市",
        "pinyin": "DaTong",
        "lng": 113.300129,
        "lat": 40.076762,
        "children": [
          {
            "code": 140212000000,
            "name": "新荣区",
            "pinyin": "XinRong",
            "lng": 113.140005,
            "lat": 40.255866
          },
          {
            "code": 140213000000,
            "name": "平城区",
            "pinyin": "PingCheng",
            "lng": 113.61244,
            "lat": 40.040295
          },
          {
            "code": 140214000000,
            "name": "云冈区",
            "pinyin": "YunGang",
            "lng": 113.61244,
            "lat": 40.040295
          },
          {
            "code": 140215000000,
            "name": "云州区",
            "pinyin": "YunZhou",
            "lng": 113.61244,
            "lat": 40.040295
          },
          {
            "code": 140221000000,
            "name": "阳高县",
            "pinyin": "YangGao",
            "lng": 113.748945,
            "lat": 40.36106
          },
          {
            "code": 140222000000,
            "name": "天镇县",
            "pinyin": "TianZhen",
            "lng": 114.090867,
            "lat": 40.420237
          },
          {
            "code": 140223000000,
            "name": "广灵县",
            "pinyin": "GuangLing",
            "lng": 114.274025,
            "lat": 39.761749
          },
          {
            "code": 140224000000,
            "name": "灵丘县",
            "pinyin": "LingQiu",
            "lng": 114.23435,
            "lat": 39.442406
          },
          {
            "code": 140225000000,
            "name": "浑源县",
            "pinyin": "HunYuan",
            "lng": 113.699475,
            "lat": 39.693407
          },
          {
            "code": 140226000000,
            "name": "左云县",
            "pinyin": "ZuoYun",
            "lng": 112.703008,
            "lat": 40.013442
          },
          {
            "code": 140271000000,
            "name": "山西大同经济开发区",
            "pinyin": "ShanXiDaTongJingKaiQu",
            "lng": 113.39743,
            "lat": 40.073892
          }
        ]
      },
      {
        "code": 140300000000,
        "name": "阳泉市",
        "pinyin": "YangQuan",
        "lng": 113.580519,
        "lat": 37.856971,
        "children": [
          {
            "code": 140302000000,
            "name": "城区",
            "pinyin": "ChengQu",
            "lng": 113.60067,
            "lat": 37.847437
          },
          {
            "code": 140303000000,
            "name": "矿区",
            "pinyin": "KuangQu",
            "lng": 113.580519,
            "lat": 37.856971
          },
          {
            "code": 140311000000,
            "name": "郊区",
            "pinyin": "JiaoQu",
            "lng": 113.594164,
            "lat": 37.944679
          },
          {
            "code": 140321000000,
            "name": "平定县",
            "pinyin": "PingDing",
            "lng": 113.657841,
            "lat": 37.786653
          },
          {
            "code": 140322000000,
            "name": "盂县",
            "pinyin": "YuXian",
            "lng": 113.41233,
            "lat": 38.085619
          }
        ]
      },
      {
        "code": 140400000000,
        "name": "长治市",
        "pinyin": "ChangZhi",
        "lng": 113.116255,
        "lat": 36.195386,
        "children": [
          {
            "code": 140403000000,
            "name": "潞州区",
            "pinyin": "LuZhou",
            "lng": 113.116255,
            "lat": 36.195386
          },
          {
            "code": 140404000000,
            "name": "上党区",
            "pinyin": "ShangDang",
            "lng": 113.11121,
            "lat": 36.187185
          },
          {
            "code": 140405000000,
            "name": "屯留区",
            "pinyin": "TunLiu",
            "lng": 112.892151,
            "lat": 36.315929
          },
          {
            "code": 140406000000,
            "name": "潞城区",
            "pinyin": "LuCheng",
            "lng": 113.228852,
            "lat": 36.334104
          },
          {
            "code": 140423000000,
            "name": "襄垣县",
            "pinyin": "XiangYuan",
            "lng": 113.051491,
            "lat": 36.535817
          },
          {
            "code": 140425000000,
            "name": "平顺县",
            "pinyin": "PingShun",
            "lng": 113.435961,
            "lat": 36.200179
          },
          {
            "code": 140426000000,
            "name": "黎城县",
            "pinyin": "LiCheng",
            "lng": 113.386544,
            "lat": 36.503621
          },
          {
            "code": 140427000000,
            "name": "壶关县",
            "pinyin": "HuGuan",
            "lng": 113.207049,
            "lat": 36.115449
          },
          {
            "code": 140428000000,
            "name": "长子县",
            "pinyin": "ZhangZi",
            "lng": 112.8779,
            "lat": 36.122334
          },
          {
            "code": 140429000000,
            "name": "武乡县",
            "pinyin": "WuXiang",
            "lng": 112.864562,
            "lat": 36.837625
          },
          {
            "code": 140430000000,
            "name": "沁县",
            "pinyin": "QinXian",
            "lng": 112.699226,
            "lat": 36.756064
          },
          {
            "code": 140431000000,
            "name": "沁源县",
            "pinyin": "QinYuan",
            "lng": 112.337446,
            "lat": 36.5002
          },
          {
            "code": 140471000000,
            "name": "山西长治高新技术产业园区",
            "pinyin": "ShanXiChangZhiGao",
            "lng": 113.116255,
            "lat": 36.195386
          }
        ]
      },
      {
        "code": 140500000000,
        "name": "晋城市",
        "pinyin": "JinCheng",
        "lng": 112.851831,
        "lat": 35.490701,
        "children": [
          {
            "code": 140502000000,
            "name": "城区",
            "pinyin": "ChengQu",
            "lng": 112.853555,
            "lat": 35.501572
          },
          {
            "code": 140521000000,
            "name": "沁水县",
            "pinyin": "QinShui",
            "lng": 112.186739,
            "lat": 35.690141
          },
          {
            "code": 140522000000,
            "name": "阳城县",
            "pinyin": "YangCheng",
            "lng": 112.414738,
            "lat": 35.486029
          },
          {
            "code": 140524000000,
            "name": "陵川县",
            "pinyin": "LingChuan",
            "lng": 113.280688,
            "lat": 35.775685
          },
          {
            "code": 140525000000,
            "name": "泽州县",
            "pinyin": "ZeZhou",
            "lng": 112.899137,
            "lat": 35.617221
          },
          {
            "code": 140581000000,
            "name": "高平市",
            "pinyin": "GaoPing",
            "lng": 112.92392,
            "lat": 35.797997
          }
        ]
      },
      {
        "code": 140600000000,
        "name": "朔州市",
        "pinyin": "ShuoZhou",
        "lng": 112.432825,
        "lat": 39.331595,
        "children": [
          {
            "code": 140602000000,
            "name": "朔城区",
            "pinyin": "ShuoCheng",
            "lng": 112.43225,
            "lat": 39.31894
          },
          {
            "code": 140603000000,
            "name": "平鲁区",
            "pinyin": "PingLu",
            "lng": 112.288331,
            "lat": 39.512155
          },
          {
            "code": 140621000000,
            "name": "山阴县",
            "pinyin": "ShanYin",
            "lng": 112.8166,
            "lat": 39.526227
          },
          {
            "code": 140622000000,
            "name": "应县",
            "pinyin": "YingXian",
            "lng": 113.191099,
            "lat": 39.554247
          },
          {
            "code": 140623000000,
            "name": "右玉县",
            "pinyin": "YouYu",
            "lng": 112.466989,
            "lat": 39.989064
          },
          {
            "code": 140671000000,
            "name": "山西朔州经济开发区",
            "pinyin": "ShanXiShuoZhouJingKaiQu",
            "lng": 112.45699,
            "lat": 39.348625
          },
          {
            "code": 140681000000,
            "name": "怀仁市",
            "pinyin": "HuaiRen",
            "lng": 113.099958,
            "lat": 39.827916
          }
        ]
      },
      {
        "code": 140700000000,
        "name": "晋中市",
        "pinyin": "JinZhong",
        "lng": 112.752694,
        "lat": 37.687024,
        "children": [
          {
            "code": 140702000000,
            "name": "榆次区",
            "pinyin": "YuCi",
            "lng": 112.708241,
            "lat": 37.697792
          },
          {
            "code": 140703000000,
            "name": "太谷区",
            "pinyin": "TaiGu",
            "lng": 112.551357,
            "lat": 37.421308
          },
          {
            "code": 140721000000,
            "name": "榆社县",
            "pinyin": "YuShe",
            "lng": 112.975287,
            "lat": 37.070788
          },
          {
            "code": 140722000000,
            "name": "左权县",
            "pinyin": "ZuoQuan",
            "lng": 113.379372,
            "lat": 37.082681
          },
          {
            "code": 140723000000,
            "name": "和顺县",
            "pinyin": "HeShun",
            "lng": 113.570438,
            "lat": 37.329664
          },
          {
            "code": 140724000000,
            "name": "昔阳县",
            "pinyin": "XiYang",
            "lng": 113.706875,
            "lat": 37.61121
          },
          {
            "code": 140725000000,
            "name": "寿阳县",
            "pinyin": "ShouYang",
            "lng": 113.176434,
            "lat": 37.895325
          },
          {
            "code": 140727000000,
            "name": "祁县",
            "pinyin": "QiXian",
            "lng": 112.335297,
            "lat": 37.358317
          },
          {
            "code": 140728000000,
            "name": "平遥县",
            "pinyin": "PingYao",
            "lng": 112.176273,
            "lat": 37.189559
          },
          {
            "code": 140729000000,
            "name": "灵石县",
            "pinyin": "LingShi",
            "lng": 111.778685,
            "lat": 36.84786
          },
          {
            "code": 140781000000,
            "name": "介休市",
            "pinyin": "JieXiu",
            "lng": 111.916712,
            "lat": 37.026945
          }
        ]
      },
      {
        "code": 140800000000,
        "name": "运城市",
        "pinyin": "YunCheng",
        "lng": 111.007528,
        "lat": 35.026412,
        "children": [
          {
            "code": 140802000000,
            "name": "盐湖区",
            "pinyin": "YanHu",
            "lng": 110.998272,
            "lat": 35.015101
          },
          {
            "code": 140821000000,
            "name": "临猗县",
            "pinyin": "LinYi",
            "lng": 110.774547,
            "lat": 35.144277
          },
          {
            "code": 140822000000,
            "name": "万荣县",
            "pinyin": "WanRong",
            "lng": 110.838024,
            "lat": 35.415254
          },
          {
            "code": 140823000000,
            "name": "闻喜县",
            "pinyin": "WenXi",
            "lng": 111.22472,
            "lat": 35.356644
          },
          {
            "code": 140824000000,
            "name": "稷山县",
            "pinyin": "JiShan",
            "lng": 110.983333,
            "lat": 35.604025
          },
          {
            "code": 140825000000,
            "name": "新绛县",
            "pinyin": "XinJiang",
            "lng": 111.224778,
            "lat": 35.616288
          },
          {
            "code": 140826000000,
            "name": "绛县",
            "pinyin": "JiangXian",
            "lng": 111.568236,
            "lat": 35.49119
          },
          {
            "code": 140827000000,
            "name": "垣曲县",
            "pinyin": "YuanQu",
            "lng": 111.669917,
            "lat": 35.29762
          },
          {
            "code": 140828000000,
            "name": "夏县",
            "pinyin": "XiaXian",
            "lng": 111.220456,
            "lat": 35.141363
          },
          {
            "code": 140829000000,
            "name": "平陆县",
            "pinyin": "PingLu",
            "lng": 111.194133,
            "lat": 34.82926
          },
          {
            "code": 140830000000,
            "name": "芮城县",
            "pinyin": "RuiCheng",
            "lng": 110.694369,
            "lat": 34.69358
          },
          {
            "code": 140881000000,
            "name": "永济市",
            "pinyin": "YongJi",
            "lng": 110.447549,
            "lat": 34.86705
          },
          {
            "code": 140882000000,
            "name": "河津市",
            "pinyin": "HeJin",
            "lng": 110.712063,
            "lat": 35.596383
          }
        ]
      },
      {
        "code": 140900000000,
        "name": "忻州市",
        "pinyin": "XinZhou",
        "lng": 112.734174,
        "lat": 38.416663,
        "children": [
          {
            "code": 140902000000,
            "name": "忻府区",
            "pinyin": "XinFu",
            "lng": 112.746046,
            "lat": 38.404243
          },
          {
            "code": 140921000000,
            "name": "定襄县",
            "pinyin": "DingXiang",
            "lng": 112.957215,
            "lat": 38.473548
          },
          {
            "code": 140922000000,
            "name": "五台县",
            "pinyin": "WuTai",
            "lng": 113.255309,
            "lat": 38.728315
          },
          {
            "code": 140923000000,
            "name": "代县",
            "pinyin": "DaiXian",
            "lng": 112.960282,
            "lat": 39.066917
          },
          {
            "code": 140924000000,
            "name": "繁峙县",
            "pinyin": "FanShi",
            "lng": 113.265564,
            "lat": 39.188811
          },
          {
            "code": 140925000000,
            "name": "宁武县",
            "pinyin": "NingWu",
            "lng": 112.304722,
            "lat": 39.001524
          },
          {
            "code": 140926000000,
            "name": "静乐县",
            "pinyin": "JingLe",
            "lng": 111.93944,
            "lat": 38.359036
          },
          {
            "code": 140927000000,
            "name": "神池县",
            "pinyin": "ShenChi",
            "lng": 112.211297,
            "lat": 39.090553
          },
          {
            "code": 140928000000,
            "name": "五寨县",
            "pinyin": "WuZhai",
            "lng": 111.846905,
            "lat": 38.910726
          },
          {
            "code": 140929000000,
            "name": "岢岚县",
            "pinyin": "KeLan",
            "lng": 111.57285,
            "lat": 38.70418
          },
          {
            "code": 140930000000,
            "name": "河曲县",
            "pinyin": "HeQu",
            "lng": 111.138472,
            "lat": 39.384482
          },
          {
            "code": 140931000000,
            "name": "保德县",
            "pinyin": "BaoDe",
            "lng": 111.086564,
            "lat": 39.022488
          },
          {
            "code": 140932000000,
            "name": "偏关县",
            "pinyin": "PianGuan",
            "lng": 111.508831,
            "lat": 39.436306
          },
          {
            "code": 140971000000,
            "name": "五台山风景名胜区",
            "pinyin": "WuTaiShanFengJingQu",
            "lng": 113.590726,
            "lat": 38.968639
          },
          {
            "code": 140981000000,
            "name": "原平市",
            "pinyin": "YuanPing",
            "lng": 112.711059,
            "lat": 38.731402
          }
        ]
      },
      {
        "code": 141000000000,
        "name": "临汾市",
        "pinyin": "LinFen",
        "lng": 111.518976,
        "lat": 36.088005,
        "children": [
          {
            "code": 141002000000,
            "name": "尧都区",
            "pinyin": "YaoDu",
            "lng": 111.579554,
            "lat": 36.078841
          },
          {
            "code": 141021000000,
            "name": "曲沃县",
            "pinyin": "QuWo",
            "lng": 111.475861,
            "lat": 35.641087
          },
          {
            "code": 141022000000,
            "name": "翼城县",
            "pinyin": "YiCheng",
            "lng": 111.718951,
            "lat": 35.738576
          },
          {
            "code": 141023000000,
            "name": "襄汾县",
            "pinyin": "XiangFen",
            "lng": 111.441725,
            "lat": 35.876293
          },
          {
            "code": 141024000000,
            "name": "洪洞县",
            "pinyin": "HongDong",
            "lng": 111.674966,
            "lat": 36.253748
          },
          {
            "code": 141025000000,
            "name": "古县",
            "pinyin": "GuXian",
            "lng": 111.920466,
            "lat": 36.266914
          },
          {
            "code": 141026000000,
            "name": "安泽县",
            "pinyin": "AnZe",
            "lng": 112.250144,
            "lat": 36.147787
          },
          {
            "code": 141027000000,
            "name": "浮山县",
            "pinyin": "FuShan",
            "lng": 111.848883,
            "lat": 35.968124
          },
          {
            "code": 141028000000,
            "name": "吉县",
            "pinyin": "JiXian",
            "lng": 110.681763,
            "lat": 36.098188
          },
          {
            "code": 141029000000,
            "name": "乡宁县",
            "pinyin": "XiangNing",
            "lng": 110.847021,
            "lat": 35.970389
          },
          {
            "code": 141030000000,
            "name": "大宁县",
            "pinyin": "DaNing",
            "lng": 110.752903,
            "lat": 36.465133
          },
          {
            "code": 141031000000,
            "name": "隰县",
            "pinyin": "XiXian",
            "lng": 110.940638,
            "lat": 36.693331
          },
          {
            "code": 141032000000,
            "name": "永和县",
            "pinyin": "YongHe",
            "lng": 110.632007,
            "lat": 36.759507
          },
          {
            "code": 141033000000,
            "name": "蒲县",
            "pinyin": "PuXian",
            "lng": 111.096439,
            "lat": 36.411827
          },
          {
            "code": 141034000000,
            "name": "汾西县",
            "pinyin": "FenXi",
            "lng": 111.563951,
            "lat": 36.652854
          },
          {
            "code": 141081000000,
            "name": "侯马市",
            "pinyin": "HouMa",
            "lng": 111.372002,
            "lat": 35.619105
          },
          {
            "code": 141082000000,
            "name": "霍州市",
            "pinyin": "HuoZhou",
            "lng": 111.755398,
            "lat": 36.568931
          }
        ]
      },
      {
        "code": 141100000000,
        "name": "吕梁市",
        "pinyin": "LyuLiang",
        "lng": 111.144319,
        "lat": 37.518314,
        "children": [
          {
            "code": 141102000000,
            "name": "离石区",
            "pinyin": "LiShi",
            "lng": 111.150733,
            "lat": 37.517641
          },
          {
            "code": 141121000000,
            "name": "文水县",
            "pinyin": "WenShui",
            "lng": 112.028866,
            "lat": 37.438102
          },
          {
            "code": 141122000000,
            "name": "交城县",
            "pinyin": "JiaoCheng",
            "lng": 112.155841,
            "lat": 37.55197
          },
          {
            "code": 141123000000,
            "name": "兴县",
            "pinyin": "XingXian",
            "lng": 111.127668,
            "lat": 38.46239
          },
          {
            "code": 141124000000,
            "name": "临县",
            "pinyin": "LinXian",
            "lng": 110.992094,
            "lat": 37.950758
          },
          {
            "code": 141125000000,
            "name": "柳林县",
            "pinyin": "LiuLin",
            "lng": 110.889071,
            "lat": 37.429832
          },
          {
            "code": 141126000000,
            "name": "石楼县",
            "pinyin": "ShiLou",
            "lng": 110.834561,
            "lat": 36.997412
          },
          {
            "code": 141127000000,
            "name": "岚县",
            "pinyin": "LanXian",
            "lng": 111.671917,
            "lat": 38.279299
          },
          {
            "code": 141128000000,
            "name": "方山县",
            "pinyin": "FangShan",
            "lng": 111.244098,
            "lat": 37.894631
          },
          {
            "code": 141129000000,
            "name": "中阳县",
            "pinyin": "ZhongYang",
            "lng": 111.179657,
            "lat": 37.357058
          },
          {
            "code": 141130000000,
            "name": "交口县",
            "pinyin": "JiaoKou",
            "lng": 111.181151,
            "lat": 36.982186
          },
          {
            "code": 141181000000,
            "name": "孝义市",
            "pinyin": "XiaoYi",
            "lng": 111.778818,
            "lat": 37.146294
          },
          {
            "code": 141182000000,
            "name": "汾阳市",
            "pinyin": "FenYang",
            "lng": 111.769894,
            "lat": 37.261564
          }
        ]
      }
    ]
  },
  {
    "code": 150000000000,
    "name": "内蒙古自治区",
    "pinyin": "NeiMengGu",
    "lng": 111.765617,
    "lat": 40.817498,
    "children": [
      {
        "code": 150100000000,
        "name": "呼和浩特市",
        "pinyin": "HuHeHaoTe",
        "lng": 111.74918,
        "lat": 40.842585,
        "children": [
          {
            "code": 150102000000,
            "name": "新城区",
            "pinyin": "XinCheng",
            "lng": 111.665544,
            "lat": 40.858289
          },
          {
            "code": 150103000000,
            "name": "回民区",
            "pinyin": "HuiMin",
            "lng": 111.623692,
            "lat": 40.808608
          },
          {
            "code": 150104000000,
            "name": "玉泉区",
            "pinyin": "YuQuan",
            "lng": 111.673881,
            "lat": 40.753655
          },
          {
            "code": 150105000000,
            "name": "赛罕区",
            "pinyin": "SaiHan",
            "lng": 111.701857,
            "lat": 40.792097
          },
          {
            "code": 150121000000,
            "name": "土默特左旗",
            "pinyin": "TuMoTeZuoQi",
            "lng": 111.163902,
            "lat": 40.729573
          },
          {
            "code": 150122000000,
            "name": "托克托县",
            "pinyin": "TuoKeTuo",
            "lng": 111.194313,
            "lat": 40.277431
          },
          {
            "code": 150123000000,
            "name": "和林格尔县",
            "pinyin": "HeLinGeEr",
            "lng": 111.821843,
            "lat": 40.378787
          },
          {
            "code": 150124000000,
            "name": "清水河县",
            "pinyin": "QingShuiHe",
            "lng": 111.647609,
            "lat": 39.921095
          },
          {
            "code": 150125000000,
            "name": "武川县",
            "pinyin": "WuChuan",
            "lng": 111.451303,
            "lat": 41.096471
          },
          {
            "code": 150172000000,
            "name": "呼和浩特经济技术开发区",
            "pinyin": "HuHeHaoTeJingKaiQu",
            "lng": 111.755762,
            "lat": 40.834536
          }
        ]
      },
      {
        "code": 150200000000,
        "name": "包头市",
        "pinyin": "BaoTou",
        "lng": 109.840347,
        "lat": 40.657449,
        "children": [
          {
            "code": 150202000000,
            "name": "东河区",
            "pinyin": "DongHe",
            "lng": 110.044142,
            "lat": 40.575948
          },
          {
            "code": 150203000000,
            "name": "昆都仑区",
            "pinyin": "KunDuLun",
            "lng": 109.838178,
            "lat": 40.642236
          },
          {
            "code": 150204000000,
            "name": "青山区",
            "pinyin": "QingShan",
            "lng": 109.901572,
            "lat": 40.643246
          },
          {
            "code": 150205000000,
            "name": "石拐区",
            "pinyin": "ShiGuai",
            "lng": 110.060686,
            "lat": 40.676645
          },
          {
            "code": 150206000000,
            "name": "白云鄂博矿区",
            "pinyin": "BaiYunEBoKuang",
            "lng": 109.840347,
            "lat": 40.657449
          },
          {
            "code": 150207000000,
            "name": "九原区",
            "pinyin": "JiuYuan",
            "lng": 109.968122,
            "lat": 40.600581
          },
          {
            "code": 150221000000,
            "name": "土默特右旗",
            "pinyin": "TuMoTeYouQi",
            "lng": 110.524263,
            "lat": 40.569426
          },
          {
            "code": 150222000000,
            "name": "固阳县",
            "pinyin": "GuYang",
            "lng": 110.060514,
            "lat": 41.034106
          },
          {
            "code": 150223000000,
            "name": "达尔罕茂明安联合旗",
            "pinyin": "DaErHanMaoMingAn",
            "lng": 110.432626,
            "lat": 41.698992
          },
          {
            "code": 150271000000,
            "name": "包头稀土高新技术产业开发区",
            "pinyin": "BaoTouXiTuGao",
            "lng": 109.840347,
            "lat": 40.657449
          }
        ]
      },
      {
        "code": 150300000000,
        "name": "乌海市",
        "pinyin": "WuHai",
        "lng": 106.794249,
        "lat": 39.655388,
        "children": [
          {
            "code": 150302000000,
            "name": "海勃湾区",
            "pinyin": "HaiBoWan",
            "lng": 106.822779,
            "lat": 39.691156
          },
          {
            "code": 150303000000,
            "name": "海南区",
            "pinyin": "HaiNan",
            "lng": 106.891424,
            "lat": 39.441364
          },
          {
            "code": 150304000000,
            "name": "乌达区",
            "pinyin": "WuDa",
            "lng": 106.726099,
            "lat": 39.505925
          }
        ]
      },
      {
        "code": 150400000000,
        "name": "赤峰市",
        "pinyin": "ChiFeng",
        "lng": 118.886856,
        "lat": 42.257817,
        "children": [
          {
            "code": 150402000000,
            "name": "红山区",
            "pinyin": "HongShan",
            "lng": 118.967296,
            "lat": 42.271963
          },
          {
            "code": 150403000000,
            "name": "元宝山区",
            "pinyin": "YuanBaoShan",
            "lng": 119.288611,
            "lat": 42.038902
          },
          {
            "code": 150404000000,
            "name": "松山区",
            "pinyin": "SongShan",
            "lng": 118.933235,
            "lat": 42.284008
          },
          {
            "code": 150421000000,
            "name": "阿鲁科尔沁旗",
            "pinyin": "ALuKeErQinQi",
            "lng": 120.0657,
            "lat": 43.872299
          },
          {
            "code": 150422000000,
            "name": "巴林左旗",
            "pinyin": "BaLinZuoQi",
            "lng": 119.37949,
            "lat": 43.971126
          },
          {
            "code": 150423000000,
            "name": "巴林右旗",
            "pinyin": "BaLinYouQi",
            "lng": 118.66518,
            "lat": 43.534414
          },
          {
            "code": 150424000000,
            "name": "林西县",
            "pinyin": "LinXi",
            "lng": 118.05545,
            "lat": 43.61812
          },
          {
            "code": 150425000000,
            "name": "克什克腾旗",
            "pinyin": "KeShiKeTengQi",
            "lng": 117.545798,
            "lat": 43.264989
          },
          {
            "code": 150426000000,
            "name": "翁牛特旗",
            "pinyin": "WengNiuTeQi",
            "lng": 119.00658,
            "lat": 42.936188
          },
          {
            "code": 150428000000,
            "name": "喀喇沁旗",
            "pinyin": "KaLaQinQi",
            "lng": 118.701938,
            "lat": 41.927364
          },
          {
            "code": 150429000000,
            "name": "宁城县",
            "pinyin": "NingCheng",
            "lng": 118.557602,
            "lat": 41.415477
          },
          {
            "code": 150430000000,
            "name": "敖汉旗",
            "pinyin": "AoHanQi",
            "lng": 119.921604,
            "lat": 42.290782
          }
        ]
      },
      {
        "code": 150500000000,
        "name": "通辽市",
        "pinyin": "TongLiao",
        "lng": 122.243444,
        "lat": 43.65289,
        "children": [
          {
            "code": 150502000000,
            "name": "科尔沁区",
            "pinyin": "KeErQin",
            "lng": 122.255675,
            "lat": 43.623077
          },
          {
            "code": 150521000000,
            "name": "科尔沁左翼中旗",
            "pinyin": "KeErQinZuoYiZhongQi",
            "lng": 123.312265,
            "lat": 44.126626
          },
          {
            "code": 150522000000,
            "name": "科尔沁左翼后旗",
            "pinyin": "KeErQinZuoYiHouQi",
            "lng": 122.356749,
            "lat": 42.935159
          },
          {
            "code": 150523000000,
            "name": "开鲁县",
            "pinyin": "KaiLu",
            "lng": 121.319309,
            "lat": 43.601244
          },
          {
            "code": 150524000000,
            "name": "库伦旗",
            "pinyin": "KuLunQi",
            "lng": 121.810701,
            "lat": 42.735657
          },
          {
            "code": 150525000000,
            "name": "奈曼旗",
            "pinyin": "NaiManQi",
            "lng": 120.662419,
            "lat": 42.845455
          },
          {
            "code": 150526000000,
            "name": "扎鲁特旗",
            "pinyin": "ZaLuTeQi",
            "lng": 120.911676,
            "lat": 44.556389
          },
          {
            "code": 150571000000,
            "name": "通辽经济技术开发区",
            "pinyin": "TongLiaoJingKaiQu",
            "lng": 122.248991,
            "lat": 43.651827
          },
          {
            "code": 150581000000,
            "name": "霍林郭勒市",
            "pinyin": "HuoLinGuoLe",
            "lng": 119.663534,
            "lat": 45.531726
          }
        ]
      },
      {
        "code": 150600000000,
        "name": "鄂尔多斯市",
        "pinyin": "EErDuoSi",
        "lng": 109.781327,
        "lat": 39.608266,
        "children": [
          {
            "code": 150602000000,
            "name": "东胜区",
            "pinyin": "DongSheng",
            "lng": 109.963339,
            "lat": 39.822507
          },
          {
            "code": 150603000000,
            "name": "康巴什区",
            "pinyin": "KangBaShen",
            "lng": 109.781327,
            "lat": 39.608266
          },
          {
            "code": 150621000000,
            "name": "达拉特旗",
            "pinyin": "DaLaTeQi",
            "lng": 110.033833,
            "lat": 40.412438
          },
          {
            "code": 150622000000,
            "name": "准格尔旗",
            "pinyin": "ZhunGeErQi",
            "lng": 111.240171,
            "lat": 39.864362
          },
          {
            "code": 150623000000,
            "name": "鄂托克前旗",
            "pinyin": "ETuoKeQianQi",
            "lng": 107.477515,
            "lat": 38.182362
          },
          {
            "code": 150624000000,
            "name": "鄂托克旗",
            "pinyin": "ETuoKeQi",
            "lng": 107.976161,
            "lat": 39.08965
          },
          {
            "code": 150625000000,
            "name": "杭锦旗",
            "pinyin": "HangJinQi",
            "lng": 108.736208,
            "lat": 39.833309
          },
          {
            "code": 150626000000,
            "name": "乌审旗",
            "pinyin": "WuShenQi",
            "lng": 108.817607,
            "lat": 38.604136
          },
          {
            "code": 150627000000,
            "name": "伊金霍洛旗",
            "pinyin": "YiJinHuoLuoQi",
            "lng": 109.74774,
            "lat": 39.56466
          }
        ]
      },
      {
        "code": 150700000000,
        "name": "呼伦贝尔市",
        "pinyin": "HuLunBeiEr",
        "lng": 119.765744,
        "lat": 49.211574,
        "children": [
          {
            "code": 150702000000,
            "name": "海拉尔区",
            "pinyin": "HaiLaEr",
            "lng": 119.736279,
            "lat": 49.212189
          },
          {
            "code": 150703000000,
            "name": "扎赉诺尔区",
            "pinyin": "ZhaLaiNuoEr",
            "lng": 117.670248,
            "lat": 49.510375
          },
          {
            "code": 150721000000,
            "name": "阿荣旗",
            "pinyin": "ARongQi",
            "lng": 123.45905,
            "lat": 48.126585
          },
          {
            "code": 150722000000,
            "name": "莫力达瓦达斡尔族自治旗",
            "pinyin": "MoLiDaWa",
            "lng": 124.519023,
            "lat": 48.477729
          },
          {
            "code": 150723000000,
            "name": "鄂伦春自治旗",
            "pinyin": "ELunChunZiZhiQi",
            "lng": 119.765744,
            "lat": 49.211574
          },
          {
            "code": 150724000000,
            "name": "鄂温克族自治旗",
            "pinyin": "EWenKeZuZiZhiQi",
            "lng": 119.755213,
            "lat": 49.146588
          },
          {
            "code": 150725000000,
            "name": "陈巴尔虎旗",
            "pinyin": "ChenBaErHuQi",
            "lng": 119.424026,
            "lat": 49.328916
          },
          {
            "code": 150726000000,
            "name": "新巴尔虎左旗",
            "pinyin": "XinBaErHuZuoQi",
            "lng": 118.26982,
            "lat": 48.218241
          },
          {
            "code": 150727000000,
            "name": "新巴尔虎右旗",
            "pinyin": "XinBaErHuYouQi",
            "lng": 116.82369,
            "lat": 48.672101
          },
          {
            "code": 150781000000,
            "name": "满洲里市",
            "pinyin": "ManZhouLi",
            "lng": 117.37853,
            "lat": 49.597841
          },
          {
            "code": 150782000000,
            "name": "牙克石市",
            "pinyin": "YaKeShi",
            "lng": 120.735775,
            "lat": 49.293222
          },
          {
            "code": 150783000000,
            "name": "扎兰屯市",
            "pinyin": "ZhaLanTun",
            "lng": 122.737467,
            "lat": 48.013733
          },
          {
            "code": 150784000000,
            "name": "额尔古纳市",
            "pinyin": "EErGuNa",
            "lng": 119.765744,
            "lat": 49.211574
          },
          {
            "code": 150785000000,
            "name": "根河市",
            "pinyin": "GenHe",
            "lng": 119.765744,
            "lat": 49.211574
          }
        ]
      },
      {
        "code": 150800000000,
        "name": "巴彦淖尔市",
        "pinyin": "BaYanNaoEr",
        "lng": 107.387657,
        "lat": 40.743213,
        "children": [
          {
            "code": 150802000000,
            "name": "临河区",
            "pinyin": "LinHe",
            "lng": 107.363919,
            "lat": 40.751187
          },
          {
            "code": 150821000000,
            "name": "五原县",
            "pinyin": "WuYuan",
            "lng": 108.267562,
            "lat": 41.088422
          },
          {
            "code": 150822000000,
            "name": "磴口县",
            "pinyin": "DengKou",
            "lng": 107.008248,
            "lat": 40.330524
          },
          {
            "code": 150823000000,
            "name": "乌拉特前旗",
            "pinyin": "WuLaTeQianQi",
            "lng": 108.652119,
            "lat": 40.73703
          },
          {
            "code": 150824000000,
            "name": "乌拉特中旗",
            "pinyin": "WuLaTeZhongQi",
            "lng": 108.513645,
            "lat": 41.587732
          },
          {
            "code": 150825000000,
            "name": "乌拉特后旗",
            "pinyin": "WuLaTeHouQi",
            "lng": 107.074621,
            "lat": 41.084283
          },
          {
            "code": 150826000000,
            "name": "杭锦后旗",
            "pinyin": "HangJinHouQi",
            "lng": 107.150909,
            "lat": 40.885896
          }
        ]
      },
      {
        "code": 150900000000,
        "name": "乌兰察布市",
        "pinyin": "WuLanChaBu",
        "lng": 113.132585,
        "lat": 40.994785,
        "children": [
          {
            "code": 150902000000,
            "name": "集宁区",
            "pinyin": "JiNing",
            "lng": 113.123779,
            "lat": 40.990689
          },
          {
            "code": 150921000000,
            "name": "卓资县",
            "pinyin": "ZhuoZi",
            "lng": 112.577528,
            "lat": 40.894692
          },
          {
            "code": 150922000000,
            "name": "化德县",
            "pinyin": "HuaDe",
            "lng": 114.010438,
            "lat": 41.90456
          },
          {
            "code": 150923000000,
            "name": "商都县",
            "pinyin": "ShangDu",
            "lng": 113.577816,
            "lat": 41.562113
          },
          {
            "code": 150924000000,
            "name": "兴和县",
            "pinyin": "XingHe",
            "lng": 113.834173,
            "lat": 40.872301
          },
          {
            "code": 150925000000,
            "name": "凉城县",
            "pinyin": "LiangCheng",
            "lng": 112.503971,
            "lat": 40.531555
          },
          {
            "code": 150926000000,
            "name": "察哈尔右翼前旗",
            "pinyin": "ChaHaErYouYiQianQi",
            "lng": 113.214733,
            "lat": 40.785631
          },
          {
            "code": 150927000000,
            "name": "察哈尔右翼中旗",
            "pinyin": "ChaHaErYouYiZhongQi",
            "lng": 112.635577,
            "lat": 41.277462
          },
          {
            "code": 150928000000,
            "name": "察哈尔右翼后旗",
            "pinyin": "ChaHaErYouYiHouQi",
            "lng": 113.191035,
            "lat": 41.436069
          },
          {
            "code": 150929000000,
            "name": "四子王旗",
            "pinyin": "SiZiWangQi",
            "lng": 111.706618,
            "lat": 41.533462
          },
          {
            "code": 150981000000,
            "name": "丰镇市",
            "pinyin": "FengZhen",
            "lng": 113.109892,
            "lat": 40.436983
          }
        ]
      },
      {
        "code": 152200000000,
        "name": "兴安盟",
        "pinyin": "XingAn",
        "lng": 122.067042,
        "lat": 46.077561,
        "children": [
          {
            "code": 152201000000,
            "name": "乌兰浩特市",
            "pinyin": "WuLanHaoTe",
            "lng": 122.093123,
            "lat": 46.072732
          },
          {
            "code": 152202000000,
            "name": "阿尔山市",
            "pinyin": "AErShan",
            "lng": 119.943575,
            "lat": 47.17744
          },
          {
            "code": 152221000000,
            "name": "科尔沁右翼前旗",
            "pinyin": "KeErQinYouYiQianQi",
            "lng": 121.95255,
            "lat": 46.07981
          },
          {
            "code": 152222000000,
            "name": "科尔沁右翼中旗",
            "pinyin": "KeErQinYouYiZhongQi",
            "lng": 121.47653,
            "lat": 45.060837
          },
          {
            "code": 152223000000,
            "name": "扎赉特旗",
            "pinyin": "ZhaLaiTeQi",
            "lng": 122.899656,
            "lat": 46.723237
          },
          {
            "code": 152224000000,
            "name": "突泉县",
            "pinyin": "TuQuan",
            "lng": 121.593799,
            "lat": 45.38193
          }
        ]
      },
      {
        "code": 152500000000,
        "name": "锡林郭勒盟",
        "pinyin": "XiLinGuoLe",
        "lng": 116.048222,
        "lat": 43.933454,
        "children": [
          {
            "code": 152501000000,
            "name": "二连浩特市",
            "pinyin": "ErLianHaoTe",
            "lng": 111.977943,
            "lat": 43.65317
          },
          {
            "code": 152502000000,
            "name": "锡林浩特市",
            "pinyin": "XiLinHaoTe",
            "lng": 116.086032,
            "lat": 43.933411
          },
          {
            "code": 152522000000,
            "name": "阿巴嘎旗",
            "pinyin": "ABaGaQi",
            "lng": 114.950248,
            "lat": 44.022995
          },
          {
            "code": 152523000000,
            "name": "苏尼特左旗",
            "pinyin": "SuNiTeZuoQi",
            "lng": 113.667248,
            "lat": 43.85988
          },
          {
            "code": 152524000000,
            "name": "苏尼特右旗",
            "pinyin": "SuNiTeYouQi",
            "lng": 112.641783,
            "lat": 42.742892
          },
          {
            "code": 152525000000,
            "name": "东乌珠穆沁旗",
            "pinyin": "DongWuZhuMuQinQi",
            "lng": 116.974494,
            "lat": 45.498221
          },
          {
            "code": 152526000000,
            "name": "西乌珠穆沁旗",
            "pinyin": "XiWuZhuMuQinQi",
            "lng": 117.608911,
            "lat": 44.587882
          },
          {
            "code": 152527000000,
            "name": "太仆寺旗",
            "pinyin": "TaiPuSiQi",
            "lng": 115.282986,
            "lat": 41.877136
          },
          {
            "code": 152528000000,
            "name": "镶黄旗",
            "pinyin": "XiangHuangQi",
            "lng": 113.847287,
            "lat": 42.232371
          },
          {
            "code": 152529000000,
            "name": "正镶白旗",
            "pinyin": "ZhengXiangBaiQi",
            "lng": 115.029849,
            "lat": 42.287471
          },
          {
            "code": 152530000000,
            "name": "正蓝旗",
            "pinyin": "ZhengLanQi",
            "lng": 115.99247,
            "lat": 42.241638
          },
          {
            "code": 152531000000,
            "name": "多伦县",
            "pinyin": "DuoLun",
            "lng": 116.485556,
            "lat": 42.203591
          },
          {
            "code": 152571000000,
            "name": "乌拉盖管委会",
            "pinyin": "WuLaGai",
            "lng": 118.831727,
            "lat": 45.720515
          }
        ]
      },
      {
        "code": 152900000000,
        "name": "阿拉善盟",
        "pinyin": "ALaShan",
        "lng": 105.728969,
        "lat": 38.851892,
        "children": [
          {
            "code": 152921000000,
            "name": "阿拉善左旗",
            "pinyin": "ALaShanZuoQi",
            "lng": 105.666293,
            "lat": 38.833411
          },
          {
            "code": 152922000000,
            "name": "阿拉善右旗",
            "pinyin": "ALaShanYouQi",
            "lng": 101.666917,
            "lat": 39.216186
          },
          {
            "code": 152923000000,
            "name": "额济纳旗",
            "pinyin": "EJiNaQi",
            "lng": 101.05559,
            "lat": 41.954347
          },
          {
            "code": 152971000000,
            "name": "内蒙古阿拉善高新技术产业开发区",
            "pinyin": "NeiALaShanJingKaiQu",
            "lng": 106.690507,
            "lat": 39.438209
          }
        ]
      }
    ]
  },
  {
    "code": 210000000000,
    "name": "辽宁省",
    "pinyin": "LiaoNing",
    "lng": 123.42944,
    "lat": 41.835441,
    "children": [
      {
        "code": 210100000000,
        "name": "沈阳市",
        "pinyin": "ShenYang",
        "lng": 123.431474,
        "lat": 41.805698,
        "children": [
          {
            "code": 210102000000,
            "name": "和平区",
            "pinyin": "HePing",
            "lng": 123.39568,
            "lat": 41.78945
          },
          {
            "code": 210103000000,
            "name": "沈河区",
            "pinyin": "ShenHe",
            "lng": 123.458897,
            "lat": 41.795655
          },
          {
            "code": 210104000000,
            "name": "大东区",
            "pinyin": "DaDong",
            "lng": 123.508858,
            "lat": 41.81317
          },
          {
            "code": 210105000000,
            "name": "皇姑区",
            "pinyin": "HuangGu",
            "lng": 123.44197,
            "lat": 41.824796
          },
          {
            "code": 210106000000,
            "name": "铁西区",
            "pinyin": "TieXi",
            "lng": 123.376301,
            "lat": 41.802914
          },
          {
            "code": 210111000000,
            "name": "苏家屯区",
            "pinyin": "SuJiaTun",
            "lng": 123.344031,
            "lat": 41.664757
          },
          {
            "code": 210112000000,
            "name": "浑南区",
            "pinyin": "HunNan",
            "lng": 123.449715,
            "lat": 41.714914
          },
          {
            "code": 210113000000,
            "name": "沈北新区",
            "pinyin": "ShenBei",
            "lng": 123.583197,
            "lat": 41.912487
          },
          {
            "code": 210114000000,
            "name": "于洪区",
            "pinyin": "YuHong",
            "lng": 123.308136,
            "lat": 41.793743
          },
          {
            "code": 210115000000,
            "name": "辽中区",
            "pinyin": "LiaoZhong",
            "lng": 122.765409,
            "lat": 41.516827
          },
          {
            "code": 210123000000,
            "name": "康平县",
            "pinyin": "KangPing",
            "lng": 123.355701,
            "lat": 42.741005
          },
          {
            "code": 210124000000,
            "name": "法库县",
            "pinyin": "FaKu",
            "lng": 123.440495,
            "lat": 42.50073
          },
          {
            "code": 210181000000,
            "name": "新民市",
            "pinyin": "XinMin",
            "lng": 122.725537,
            "lat": 41.932648
          }
        ]
      },
      {
        "code": 210200000000,
        "name": "大连市",
        "pinyin": "DaLian",
        "lng": 121.614682,
        "lat": 38.914003,
        "children": [
          {
            "code": 210202000000,
            "name": "中山区",
            "pinyin": "ZhongShan",
            "lng": 121.644927,
            "lat": 38.918574
          },
          {
            "code": 210203000000,
            "name": "西岗区",
            "pinyin": "XiGang",
            "lng": 121.612325,
            "lat": 38.914687
          },
          {
            "code": 210204000000,
            "name": "沙河口区",
            "pinyin": "ShaHeKou",
            "lng": 121.5942,
            "lat": 38.904808
          },
          {
            "code": 210211000000,
            "name": "甘井子区",
            "pinyin": "GanJingZi",
            "lng": 121.525461,
            "lat": 38.953351
          },
          {
            "code": 210212000000,
            "name": "旅顺口区",
            "pinyin": "LyuShunKou",
            "lng": 121.261953,
            "lat": 38.851705
          },
          {
            "code": 210213000000,
            "name": "金州区",
            "pinyin": "JinZhou",
            "lng": 121.782769,
            "lat": 39.05046
          },
          {
            "code": 210214000000,
            "name": "普兰店区",
            "pinyin": "PuLanDian",
            "lng": 122.26177,
            "lat": 39.741886
          },
          {
            "code": 210224000000,
            "name": "长海县",
            "pinyin": "ChangHai",
            "lng": 122.588494,
            "lat": 39.272728
          },
          {
            "code": 210281000000,
            "name": "瓦房店市",
            "pinyin": "WaFangDian",
            "lng": 121.979603,
            "lat": 39.627114
          },
          {
            "code": 210283000000,
            "name": "庄河市",
            "pinyin": "ZhuangHe",
            "lng": 122.967328,
            "lat": 39.680811
          }
        ]
      },
      {
        "code": 210300000000,
        "name": "鞍山市",
        "pinyin": "AnShan",
        "lng": 122.994329,
        "lat": 41.108647,
        "children": [
          {
            "code": 210302000000,
            "name": "铁东区",
            "pinyin": "TieDong",
            "lng": 122.991052,
            "lat": 41.089933
          },
          {
            "code": 210303000000,
            "name": "铁西区",
            "pinyin": "TieXi",
            "lng": 122.96963,
            "lat": 41.119885
          },
          {
            "code": 210304000000,
            "name": "立山区",
            "pinyin": "LiShan",
            "lng": 123.029091,
            "lat": 41.150401
          },
          {
            "code": 210311000000,
            "name": "千山区",
            "pinyin": "QianShan",
            "lng": 122.949298,
            "lat": 41.068909
          },
          {
            "code": 210321000000,
            "name": "台安县",
            "pinyin": "TaiAn",
            "lng": 122.436196,
            "lat": 41.412768
          },
          {
            "code": 210323000000,
            "name": "岫岩满族自治县",
            "pinyin": "XiuYan",
            "lng": 123.280935,
            "lat": 40.29088
          },
          {
            "code": 210381000000,
            "name": "海城市",
            "pinyin": "HaiCheng",
            "lng": 122.685217,
            "lat": 40.882377
          }
        ]
      },
      {
        "code": 210400000000,
        "name": "抚顺市",
        "pinyin": "FuShun",
        "lng": 123.957208,
        "lat": 41.880872,
        "children": [
          {
            "code": 210402000000,
            "name": "新抚区",
            "pinyin": "XinFu",
            "lng": 123.912861,
            "lat": 41.86208
          },
          {
            "code": 210403000000,
            "name": "东洲区",
            "pinyin": "DongZhou",
            "lng": 124.038685,
            "lat": 41.853192
          },
          {
            "code": 210404000000,
            "name": "望花区",
            "pinyin": "WangHua",
            "lng": 123.784206,
            "lat": 41.853646
          },
          {
            "code": 210411000000,
            "name": "顺城区",
            "pinyin": "ShunCheng",
            "lng": 123.94504,
            "lat": 41.883375
          },
          {
            "code": 210421000000,
            "name": "抚顺县",
            "pinyin": "FuShun",
            "lng": 124.097979,
            "lat": 41.922644
          },
          {
            "code": 210422000000,
            "name": "新宾满族自治县",
            "pinyin": "XinBin",
            "lng": 125.039978,
            "lat": 41.734256
          },
          {
            "code": 210423000000,
            "name": "清原满族自治县",
            "pinyin": "QingYuan",
            "lng": 124.924083,
            "lat": 42.100539
          }
        ]
      },
      {
        "code": 210500000000,
        "name": "本溪市",
        "pinyin": "BenXi",
        "lng": 123.766485,
        "lat": 41.294175,
        "children": [
          {
            "code": 210502000000,
            "name": "平山区",
            "pinyin": "PingShan",
            "lng": 123.768926,
            "lat": 41.299702
          },
          {
            "code": 210503000000,
            "name": "溪湖区",
            "pinyin": "XiHu",
            "lng": 123.767647,
            "lat": 41.329219
          },
          {
            "code": 210504000000,
            "name": "明山区",
            "pinyin": "MingShan",
            "lng": 123.817212,
            "lat": 41.30871
          },
          {
            "code": 210505000000,
            "name": "南芬区",
            "pinyin": "NanFen",
            "lng": 123.744802,
            "lat": 41.100445
          },
          {
            "code": 210521000000,
            "name": "本溪满族自治县",
            "pinyin": "BenXi",
            "lng": 124.120436,
            "lat": 41.301892
          },
          {
            "code": 210522000000,
            "name": "桓仁满族自治县",
            "pinyin": "HuanRen",
            "lng": 125.361007,
            "lat": 41.267128
          }
        ]
      },
      {
        "code": 210600000000,
        "name": "丹东市",
        "pinyin": "DanDong",
        "lng": 124.354706,
        "lat": 40.000499,
        "children": [
          {
            "code": 210602000000,
            "name": "元宝区",
            "pinyin": "YuanBao",
            "lng": 124.395757,
            "lat": 40.13652
          },
          {
            "code": 210603000000,
            "name": "振兴区",
            "pinyin": "ZhenXing",
            "lng": 124.360264,
            "lat": 40.105194
          },
          {
            "code": 210604000000,
            "name": "振安区",
            "pinyin": "ZhenAn",
            "lng": 124.428162,
            "lat": 40.158267
          },
          {
            "code": 210624000000,
            "name": "宽甸满族自治县",
            "pinyin": "KuanDian",
            "lng": 124.78366,
            "lat": 40.731317
          },
          {
            "code": 210681000000,
            "name": "东港市",
            "pinyin": "DongGang",
            "lng": 124.152705,
            "lat": 39.863008
          },
          {
            "code": 210682000000,
            "name": "凤城市",
            "pinyin": "FengCheng",
            "lng": 124.066919,
            "lat": 40.452298
          }
        ]
      },
      {
        "code": 210700000000,
        "name": "锦州市",
        "pinyin": "JinZhou",
        "lng": 121.127003,
        "lat": 41.095119,
        "children": [
          {
            "code": 210702000000,
            "name": "古塔区",
            "pinyin": "GuTa",
            "lng": 121.128279,
            "lat": 41.117245
          },
          {
            "code": 210703000000,
            "name": "凌河区",
            "pinyin": "LingHe",
            "lng": 121.150877,
            "lat": 41.11499
          },
          {
            "code": 210711000000,
            "name": "太和区",
            "pinyin": "TaiHe",
            "lng": 121.103892,
            "lat": 41.109147
          },